header:
  stamp:
    sec: 1765665465
    nanosec: 980937512
  frame_id: laser
angle_min: -3.1415927410125732
angle_max: 3.1415927410125732
angle_increment: 0.005823156330734491
time_increment: 0.0001343246694887057
scan_time: 0.14493632316589355
range_min: 0.05000000074505806
range_max: 12.0
ranges:
- 1.6419999599456787
- 1.6399999856948853
- 1.6419999599456787
- 1.6380000114440918
- 1.6339999437332153
- 1.6440000534057617
- 1.6440000534057617
- .inf
- .inf
- .inf
- .inf
- 4.248000144958496
- 4.248000144958496
- 4.248000144958496
- .inf
- .inf
- .inf
- .inf
- .inf
- 1.1119999885559082
- 1.1119999885559082
- 1.1119999885559082
- 1.1139999628067017
- 1.1160000562667847
- 1.1139999628067017
- 1.1160000562667847
- 1.1180000305175781
- 1.1180000305175781
- 1.1200000047683716
- 1.1200000047683716
- 1.1200000047683716
- 1.121999979019165
- 1.121999979019165
- 1.1239999532699585
- 1.1260000467300415
- 1.1260000467300415
- 1.128000020980835
- 1.128000020980835
- 1.128000020980835
- 1.1299999952316284
- 1.1319999694824219
- 1.1339999437332153
- 1.1360000371932983
- 1.1399999856948853
- 1.1399999856948853
- 1.1399999856948853
- 1.1419999599456787
- 1.1440000534057617
- 1.1440000534057617
- 1.1460000276565552
- 1.1480000019073486
- 1.1480000019073486
- 1.1519999504089355
- 1.1540000438690186
- 1.156000018119812
- 1.1579999923706055
- 1.159999966621399
- 1.159999966621399
- 1.1640000343322754
- 1.1660000085830688
- 1.1740000247955322
- 1.281999945640564
- 1.281999945640564
- 1.281999945640564
- 1.2960000038146973
- 1.3519999980926514
- 1.3519999980926514
- .inf
- .inf
- .inf
- .inf
- .inf
- .inf
- .inf
- 0.9860000014305115
- 0.9860000014305115
- 0.9860000014305115
- 0.9819999933242798
- 0.9819999933242798
- .inf
- .inf
- 1.593999981880188
- 1.593999981880188
- 1.593999981880188
- 1.6019999980926514
- 1.6019999980926514
- 1.6039999723434448
- 1.6039999723434448
- 1.6039999723434448
- 1.6059999465942383
- 1.6139999628067017
- 1.6180000305175781
- 1.6160000562667847
- 1.6200000047683716
- 1.6239999532699585
- 1.6319999694824219
- 1.6380000114440918
- 1.6399999856948853
- 1.6419999599456787
- 1.6440000534057617
- 1.6440000534057617
- 1.649999976158142
- 1.659999966621399
- 1.6679999828338623
- 1.1759999990463257
- 1.1759999990463257
- 1.1759999990463257
- 1.1740000247955322
- .inf
- .inf
- .inf
- .inf
- .inf
- 0.7979999780654907
- 0.7979999780654907
- 0.7979999780654907
- 0.7940000295639038
- 0.7940000295639038
- 0.7940000295639038
- .inf
- .inf
- .inf
- 2.5880000591278076
- 2.5880000591278076
- 2.5880000591278076
- 2.6080000400543213
- 2.6080000400543213
- 2.635999917984009
- '...'
intensities:
- 47.0
- 47.0
- 47.0
- 47.0
- 47.0
- 47.0
- 47.0
- 0.0
- 0.0
- 0.0
- 0.0
- 47.0
- 47.0
- 47.0
- 0.0
- 0.0
- 0.0
- 0.0
- 0.0
- 47.0
- 47.0
- 47.0
- 47.0
- 47.0
- 47.0
- 47.0
- 47.0
- 47.0
- 47.0
- 47.0
- 47.0
- 47.0
- 47.0
- 47.0
- 47.0
- 47.0
- 47.0
- 47.0
- 47.0
- 47.0
- 47.0
- 47.0
- 47.0
- 47.0
- 47.0
- 47.0
- 47.0
- 47.0
- 47.0
- 47.0
- 47.0
- 47.0
- 47.0
- 47.0
- 47.0
- 47.0
- 47.0
- 47.0
- 47.0
- 47.0
- 47.0
- 47.0
- 47.0
- 47.0
- 47.0
- 47.0
- 47.0
- 0.0
- 0.0
- 0.0
- 0.0
- 0.0
- 0.0
- 0.0
- 47.0
- 47.0
- 47.0
- 47.0
- 47.0
- 0.0
- 0.0
- 47.0
- 47.0
- 47.0
- 47.0
- 47.0
- 47.0
- 47.0
- 47.0
- 47.0
- 47.0
- 47.0
- 47.0
- 47.0
- 47.0
- 47.0
- 47.0
- 47.0
- 47.0
- 47.0
- 47.0
- 47.0
- 47.0
- 47.0
- 47.0
- 47.0
- 47.0
- 47.0
- 0.0
- 0.0
- 0.0
- 0.0
- 0.0
- 47.0
- 47.0
- 47.0
- 47.0
- 47.0
- 47.0
- 0.0
- 0.0
- 0.0
- 47.0
- 47.0
- 47.0
- 47.0
- 47.0
- 47.0
- '...'
---
header:
  stamp:
    sec: 1765665466
    nanosec: 128707923
  frame_id: laser
angle_min: -3.1415927410125732
angle_max: 3.1415927410125732
angle_increment: 0.005823156330734491
time_increment: 0.00014520705735776573
scan_time: 0.15667840838432312
range_min: 0.05000000074505806
range_max: 12.0
ranges:
- 1.1519999504089355
- 1.1480000019073486
- 1.1419999599456787
- 1.1360000371932983
- 1.1239999532699585
- 1.1200000047683716
- 1.1160000562667847
- 1.1119999885559082
- 1.1100000143051147
- 1.1080000400543213
- 1.1080000400543213
- 1.1080000400543213
- 1.1039999723434448
- 1.1039999723434448
- 1.1059999465942383
- 1.1080000400543213
- 1.1080000400543213
- 1.1080000400543213
- 1.1100000143051147
- 1.1100000143051147
- 1.1119999885559082
- 1.0859999656677246
- 1.0859999656677246
- 1.0880000591278076
- 1.090000033378601
- 1.090000033378601
- 1.0880000591278076
- 1.0880000591278076
- 1.090000033378601
- 1.0920000076293945
- 1.0920000076293945
- 1.0959999561309814
- 1.0959999561309814
- 1.0959999561309814
- 1.0959999561309814
- 1.0980000495910645
- 1.100000023841858
- 1.100000023841858
- 1.100000023841858
- 1.100000023841858
- 1.1019999980926514
- 1.1039999723434448
- 1.1059999465942383
- 1.1059999465942383
- 1.1080000400543213
- 1.1080000400543213
- 1.1100000143051147
- 1.1100000143051147
- 1.1119999885559082
- 1.1139999628067017
- 1.1180000305175781
- 1.1180000305175781
- 1.121999979019165
- 1.1239999532699585
- 1.1239999532699585
- 1.1260000467300415
- 1.1260000467300415
- 1.1260000467300415
- 1.128000020980835
- 1.1299999952316284
- 1.1339999437332153
- 1.1339999437332153
- 1.1399999856948853
- 1.1419999599456787
- 1.1440000534057617
- 1.1440000534057617
- 1.1460000276565552
- 1.1480000019073486
- 1.1519999504089355
- 1.156000018119812
- 1.1579999923706055
- 1.1619999408721924
- 1.1619999408721924
- 1.1640000343322754
- 1.1660000085830688
- 0.9959999918937683
- 0.9959999918937683
- 0.9919999837875366
- 0.9919999837875366
- 0.9940000176429749
- 1.190000057220459
- 1.190000057220459
- 1.190000057220459
- 1.1920000314712524
- 1.194000005722046
- 1.2000000476837158
- 1.2020000219345093
- 1.2020000219345093
- 1.2039999961853027
- 1.2079999446868896
- 1.2139999866485596
- 1.2139999866485596
- 1.2239999771118164
- 1.2280000448226929
- 1.2300000190734863
- 1.2319999933242798
- 1.2359999418258667
- 1.2400000095367432
- 1.2419999837875366
- 1.2480000257492065
- 1.25
- 1.253999948501587
- 1.25600004196167
- 1.2660000324249268
- 1.1820000410079956
- 1.1759999990463257
- 1.1759999990463257
- 1.1759999990463257
- 1.2879999876022339
- 1.2879999876022339
- 1.2940000295639038
- 1.3020000457763672
- 0.8019999861717224
- 0.8019999861717224
- 0.800000011920929
- 0.800000011920929
- 0.800000011920929
- 0.7979999780654907
- 0.7979999780654907
- .inf
- .inf
- .inf
- .inf
- .inf
- 9.824000358581543
- 9.824000358581543
- 9.824000358581543
- .inf
- '...'
intensities:
- 47.0
- 47.0
- 47.0
- 47.0
- 47.0
- 47.0
- 47.0
- 47.0
- 47.0
- 47.0
- 47.0
- 47.0
- 47.0
- 47.0
- 47.0
- 47.0
- 47.0
- 47.0
- 47.0
- 47.0
- 47.0
- 47.0
- 47.0
- 47.0
- 47.0
- 47.0
- 47.0
- 47.0
- 47.0
- 47.0
- 47.0
- 47.0
- 47.0
- 47.0
- 47.0
- 47.0
- 47.0
- 47.0
- 47.0
- 47.0
- 47.0
- 47.0
- 47.0
- 47.0
- 47.0
- 47.0
- 47.0
- 47.0
- 47.0
- 47.0
- 47.0
- 47.0
- 47.0
- 47.0
- 47.0
- 47.0
- 47.0
- 47.0
- 47.0
- 47.0
- 47.0
- 47.0
- 47.0
- 47.0
- 47.0
- 47.0
- 47.0
- 47.0
- 47.0
- 47.0
- 47.0
- 47.0
- 47.0
- 47.0
- 47.0
- 47.0
- 47.0
- 47.0
- 47.0
- 47.0
- 47.0
- 47.0
- 47.0
- 47.0
- 47.0
- 47.0
- 47.0
- 47.0
- 47.0
- 47.0
- 47.0
- 47.0
- 47.0
- 47.0
- 47.0
- 47.0
- 47.0
- 47.0
- 47.0
- 47.0
- 47.0
- 47.0
- 47.0
- 47.0
- 47.0
- 47.0
- 47.0
- 47.0
- 47.0
- 47.0
- 47.0
- 47.0
- 47.0
- 47.0
- 47.0
- 47.0
- 47.0
- 47.0
- 47.0
- 0.0
- 0.0
- 0.0
- 0.0
- 0.0
- 47.0
- 47.0
- 47.0
- 0.0
- '...'
---
header:
  stamp:
    sec: 1765665466
    nanosec: 287427155
  frame_id: laser
angle_min: -3.1415927410125732
angle_max: 3.1415927410125732
angle_increment: 0.005823156330734491
time_increment: 0.00013471861893776804
scan_time: 0.14536139369010925
range_min: 0.05000000074505806
range_max: 12.0
ranges:
- 1.0859999656677246
- 1.0859999656677246
- 1.0839999914169312
- 1.0839999914169312
- 1.0839999914169312
- 1.0859999656677246
- 1.0839999914169312
- 1.0820000171661377
- 1.0820000171661377
- 1.0820000171661377
- 1.0839999914169312
- 1.0820000171661377
- 1.0820000171661377
- 1.0839999914169312
- 1.0820000171661377
- 1.0820000171661377
- 1.0839999914169312
- 1.0839999914169312
- 1.0859999656677246
- 1.0859999656677246
- 1.0859999656677246
- 1.0859999656677246
- .inf
- .inf
- .inf
- 1.2039999961853027
- 1.2039999961853027
- 1.2039999961853027
- 1.2000000476837158
- 1.2000000476837158
- 1.2000000476837158
- 1.2020000219345093
- 1.2039999961853027
- 1.2039999961853027
- 1.2059999704360962
- 1.2059999704360962
- 1.2079999446868896
- 1.2079999446868896
- 1.2079999446868896
- 1.2079999446868896
- 1.2079999446868896
- 1.2100000381469727
- 1.2139999866485596
- 1.2139999866485596
- 1.2120000123977661
- 1.2120000123977661
- 1.2139999866485596
- 1.215999960899353
- 1.218000054359436
- 1.218000054359436
- .inf
- 1.1740000247955322
- 1.1740000247955322
- 1.1740000247955322
- 1.1699999570846558
- 1.1720000505447388
- 1.1720000505447388
- 1.1679999828338623
- 1.1660000085830688
- 1.149999976158142
- 1.121999979019165
- 1.1080000400543213
- 1.1080000400543213
- 1.1100000143051147
- 1.1100000143051147
- 1.1100000143051147
- 1.1160000562667847
- 1.1160000562667847
- 0.9660000205039978
- 0.9660000205039978
- 0.9620000123977661
- 0.9620000123977661
- 0.9599999785423279
- 1.1339999437332153
- 1.1339999437332153
- 1.1339999437332153
- 1.1360000371932983
- 1.1399999856948853
- 1.1419999599456787
- 1.1440000534057617
- 1.1460000276565552
- 1.149999976158142
- 1.1540000438690186
- 1.1540000438690186
- 1.156000018119812
- 1.159999966621399
- 1.1640000343322754
- 1.1660000085830688
- 1.1679999828338623
- 1.1720000505447388
- 1.1740000247955322
- 1.1779999732971191
- 1.1820000410079956
- 1.1820000410079956
- 1.184000015258789
- 1.190000057220459
- 1.1959999799728394
- 1.2020000219345093
- 1.2059999704360962
- 1.2079999446868896
- 1.2120000123977661
- 1.215999960899353
- 1.218000054359436
- 1.2020000219345093
- 1.1859999895095825
- 1.187999963760376
- .inf
- .inf
- 1.3279999494552612
- 1.3279999494552612
- 1.3279999494552612
- 0.7559999823570251
- 0.7559999823570251
- 0.7559999823570251
- 0.7540000081062317
- 0.7540000081062317
- 0.7540000081062317
- 0.7519999742507935
- 0.7519999742507935
- 0.7540000081062317
- .inf
- .inf
- .inf
- .inf
- .inf
- .inf
- 2.5880000591278076
- 2.5880000591278076
- '...'
intensities:
- 47.0
- 47.0
- 47.0
- 47.0
- 47.0
- 47.0
- 47.0
- 47.0
- 47.0
- 47.0
- 47.0
- 47.0
- 47.0
- 47.0
- 47.0
- 47.0
- 47.0
- 47.0
- 47.0
- 47.0
- 47.0
- 47.0
- 0.0
- 0.0
- 0.0
- 47.0
- 47.0
- 47.0
- 47.0
- 47.0
- 47.0
- 47.0
- 47.0
- 47.0
- 47.0
- 47.0
- 47.0
- 47.0
- 47.0
- 47.0
- 47.0
- 47.0
- 47.0
- 47.0
- 47.0
- 47.0
- 47.0
- 47.0
- 47.0
- 47.0
- 0.0
- 47.0
- 47.0
- 47.0
- 47.0
- 47.0
- 47.0
- 47.0
- 47.0
- 47.0
- 47.0
- 47.0
- 47.0
- 47.0
- 47.0
- 47.0
- 47.0
- 47.0
- 47.0
- 47.0
- 47.0
- 47.0
- 47.0
- 47.0
- 47.0
- 47.0
- 47.0
- 47.0
- 47.0
- 47.0
- 47.0
- 47.0
- 47.0
- 47.0
- 47.0
- 47.0
- 47.0
- 47.0
- 47.0
- 47.0
- 47.0
- 47.0
- 47.0
- 47.0
- 47.0
- 47.0
- 47.0
- 47.0
- 47.0
- 47.0
- 47.0
- 47.0
- 47.0
- 47.0
- 47.0
- 47.0
- 0.0
- 0.0
- 47.0
- 47.0
- 47.0
- 47.0
- 47.0
- 47.0
- 47.0
- 47.0
- 47.0
- 47.0
- 47.0
- 47.0
- 0.0
- 0.0
- 0.0
- 0.0
- 0.0
- 0.0
- 47.0
- 47.0
- '...'
---
header:
  stamp:
    sec: 1765665466
    nanosec: 434169284
  frame_id: laser
angle_min: -3.1415927410125732
angle_max: 3.1415927410125732
angle_increment: 0.005823156330734491
time_increment: 0.00014671536337118596
scan_time: 0.15830588340759277
range_min: 0.05000000074505806
range_max: 12.0
ranges:
- 1.4479999542236328
- 1.4479999542236328
- 1.4479999542236328
- 1.4500000476837158
- 1.4520000219345093
- 1.4500000476837158
- 1.4479999542236328
- 1.4479999542236328
- 1.4479999542236328
- 1.4259999990463257
- 1.4279999732971191
- .inf
- .inf
- 3.055999994277954
- 3.055999994277954
- 3.055999994277954
- 3.059999942779541
- 3.059999942779541
- 3.059999942779541
- 3.063999891281128
- 3.0759999752044678
- 3.0840001106262207
- 3.0920000076293945
- 1.1579999923706055
- 1.1579999923706055
- 1.1579999923706055
- 1.1239999532699585
- 1.093999981880188
- 1.0839999914169312
- 1.0740000009536743
- 1.0759999752044678
- 1.0740000009536743
- 1.0740000009536743
- 1.0720000267028809
- 1.0740000009536743
- 1.0740000009536743
- 1.0740000009536743
- 1.0740000009536743
- 1.0759999752044678
- 1.0759999752044678
- 1.0779999494552612
- 1.0759999752044678
- 1.0779999494552612
- 1.0800000429153442
- 1.0800000429153442
- 1.0800000429153442
- 1.0820000171661377
- 1.0839999914169312
- 1.0839999914169312
- 1.0859999656677246
- 1.0880000591278076
- 1.0880000591278076
- 1.090000033378601
- 1.0920000076293945
- 1.093999981880188
- 1.093999981880188
- 1.093999981880188
- 1.0959999561309814
- 1.0980000495910645
- 1.100000023841858
- 1.1039999723434448
- 1.1039999723434448
- 1.1059999465942383
- 1.1080000400543213
- 1.1100000143051147
- 1.1119999885559082
- 0.9599999785423279
- 0.9599999785423279
- 0.9599999785423279
- 0.9599999785423279
- 0.9599999785423279
- 0.9139999747276306
- 0.8960000276565552
- 0.8840000033378601
- 0.8740000128746033
- 0.8640000224113464
- 0.8560000061988831
- 0.8479999899864197
- 0.8420000076293945
- 0.8299999833106995
- 0.8259999752044678
- 0.8220000267028809
- 0.8180000185966492
- 0.8140000104904175
- 0.8100000023841858
- 0.8059999942779541
- 0.8040000200271606
- 0.800000011920929
- 0.7960000038146973
- 0.7940000295639038
- 0.7919999957084656
- 0.7900000214576721
- 0.7879999876022339
- 0.7860000133514404
- 0.7839999794960022
- 0.7820000052452087
- 0.7820000052452087
- 0.7799999713897705
- 0.7799999713897705
- 0.777999997138977
- 0.777999997138977
- 0.777999997138977
- 0.7760000228881836
- .inf
- 2.3919999599456787
- 2.3919999599456787
- 2.3919999599456787
- 2.3919999599456787
- 2.3919999599456787
- 1.3320000171661377
- 1.3320000171661377
- .inf
- 0.7580000162124634
- 0.7580000162124634
- 0.7580000162124634
- 0.7540000081062317
- 0.7519999742507935
- 0.7519999742507935
- .inf
- .inf
- .inf
- .inf
- 7.863999843597412
- 7.863999843597412
- 7.863999843597412
- .inf
- 2.5840001106262207
- 2.5840001106262207
- '...'
intensities:
- 47.0
- 47.0
- 47.0
- 47.0
- 47.0
- 47.0
- 47.0
- 47.0
- 47.0
- 47.0
- 47.0
- 0.0
- 0.0
- 47.0
- 47.0
- 47.0
- 47.0
- 47.0
- 47.0
- 47.0
- 47.0
- 47.0
- 47.0
- 47.0
- 47.0
- 47.0
- 47.0
- 47.0
- 47.0
- 47.0
- 47.0
- 47.0
- 47.0
- 47.0
- 47.0
- 47.0
- 47.0
- 47.0
- 47.0
- 47.0
- 47.0
- 47.0
- 47.0
- 47.0
- 47.0
- 47.0
- 47.0
- 47.0
- 47.0
- 47.0
- 47.0
- 47.0
- 47.0
- 47.0
- 47.0
- 47.0
- 47.0
- 47.0
- 47.0
- 47.0
- 47.0
- 47.0
- 47.0
- 47.0
- 47.0
- 47.0
- 47.0
- 47.0
- 47.0
- 47.0
- 47.0
- 47.0
- 47.0
- 47.0
- 47.0
- 47.0
- 47.0
- 47.0
- 47.0
- 47.0
- 47.0
- 47.0
- 47.0
- 47.0
- 47.0
- 47.0
- 47.0
- 47.0
- 47.0
- 47.0
- 47.0
- 47.0
- 47.0
- 47.0
- 47.0
- 47.0
- 47.0
- 47.0
- 47.0
- 47.0
- 47.0
- 47.0
- 47.0
- 0.0
- 47.0
- 47.0
- 47.0
- 47.0
- 47.0
- 47.0
- 47.0
- 0.0
- 47.0
- 47.0
- 47.0
- 47.0
- 47.0
- 47.0
- 0.0
- 0.0
- 0.0
- 0.0
- 47.0
- 47.0
- 47.0
- 0.0
- 47.0
- 47.0
- '...'
---
header:
  stamp:
    sec: 1765665466
    nanosec: 594991642
  frame_id: laser
angle_min: -3.1415927410125732
angle_max: 3.1415927410125732
angle_increment: 0.005823156330734491
time_increment: 0.00013432592095341533
scan_time: 0.144937664270401
range_min: 0.05000000074505806
range_max: 12.0
ranges:
- 1.6440000534057617
- 1.6480000019073486
- 1.6419999599456787
- 1.6440000534057617
- 1.6419999599456787
- 1.6440000534057617
- 1.6519999504089355
- .inf
- .inf
- 4.119999885559082
- 4.119999885559082
- 4.119999885559082
- 4.1519999504089355
- 4.1519999504089355
- 4.1519999504089355
- 4.127999782562256
- 4.136000156402588
- 4.159999847412109
- .inf
- .inf
- 1.4559999704360962
- 1.4559999704360962
- 1.4559999704360962
- 1.4600000381469727
- 1.4639999866485596
- 1.4620000123977661
- 1.4639999866485596
- 1.465999960899353
- 1.468000054359436
- 1.468000054359436
- 1.468000054359436
- .inf
- 1.468000054359436
- 1.468000054359436
- 1.468000054359436
- 1.4700000286102295
- 1.4700000286102295
- 1.4559999704360962
- 1.434000015258789
- 1.4520000219345093
- 1.4819999933242798
- 1.4880000352859497
- 1.49399995803833
- 1.49399995803833
- 1.4980000257492065
- 1.4320000410079956
- 1.5080000162124634
- 1.5080000162124634
- 1.5080000162124634
- 1.5119999647140503
- 1.5119999647140503
- 1.5160000324249268
- 1.5199999809265137
- 1.5219999551773071
- 1.5240000486373901
- 1.5260000228881836
- 1.25600004196167
- 1.25600004196167
- 1.25600004196167
- 1.2519999742507935
- 1.246000051498413
- 1.2400000095367432
- 1.2380000352859497
- 1.2359999418258667
- 1.284000039100647
- 1.284000039100647
- 1.284000039100647
- 1.2960000038146973
- 1.3359999656677246
- 1.3359999656677246
- 1.340000033378601
- 0.9779999852180481
- 0.9779999852180481
- 0.9779999852180481
- 0.9760000109672546
- 0.9760000109672546
- 0.9739999771118164
- 0.9739999771118164
- 1.2120000123977661
- 1.2120000123977661
- 1.2120000123977661
- 1.215999960899353
- 1.2200000286102295
- 1.2239999771118164
- 1.2280000448226929
- 1.2319999933242798
- 1.2359999418258667
- 1.2380000352859497
- 1.2419999837875366
- 1.246000051498413
- 1.25
- 1.2519999742507935
- 1.25600004196167
- 1.2599999904632568
- 1.2680000066757202
- 1.2719999551773071
- 1.2740000486373901
- 1.277999997138977
- 1.281999945640564
- 1.2879999876022339
- 1.2920000553131104
- 1.2960000038146973
- 1.2999999523162842
- 1.3040000200271606
- 1.1759999990463257
- 1.1740000247955322
- 1.1740000247955322
- 1.1740000247955322
- 1.3380000591278076
- 1.3380000591278076
- 1.3420000076293945
- 1.3480000495910645
- 1.3420000076293945
- 0.7940000295639038
- 0.7860000133514404
- 0.7860000133514404
- 0.7860000133514404
- 0.7839999794960022
- 0.7839999794960022
- 0.7839999794960022
- .inf
- 1.3519999980926514
- 1.3519999980926514
- 1.3519999980926514
- 2.631999969482422
- 2.631999969482422
- 2.635999917984009
- 2.635999917984009
- '...'
intensities:
- 47.0
- 47.0
- 47.0
- 47.0
- 47.0
- 47.0
- 47.0
- 0.0
- 0.0
- 47.0
- 47.0
- 47.0
- 47.0
- 47.0
- 47.0
- 47.0
- 47.0
- 47.0
- 0.0
- 0.0
- 47.0
- 47.0
- 47.0
- 47.0
- 47.0
- 47.0
- 47.0
- 47.0
- 47.0
- 47.0
- 47.0
- 0.0
- 47.0
- 47.0
- 47.0
- 47.0
- 47.0
- 47.0
- 47.0
- 47.0
- 47.0
- 47.0
- 47.0
- 47.0
- 47.0
- 47.0
- 47.0
- 47.0
- 47.0
- 47.0
- 47.0
- 47.0
- 47.0
- 47.0
- 47.0
- 47.0
- 47.0
- 47.0
- 47.0
- 47.0
- 47.0
- 47.0
- 47.0
- 47.0
- 47.0
- 47.0
- 47.0
- 47.0
- 47.0
- 47.0
- 47.0
- 47.0
- 47.0
- 47.0
- 47.0
- 47.0
- 47.0
- 47.0
- 47.0
- 47.0
- 47.0
- 47.0
- 47.0
- 47.0
- 47.0
- 47.0
- 47.0
- 47.0
- 47.0
- 47.0
- 47.0
- 47.0
- 47.0
- 47.0
- 47.0
- 47.0
- 47.0
- 47.0
- 47.0
- 47.0
- 47.0
- 47.0
- 47.0
- 47.0
- 47.0
- 47.0
- 47.0
- 47.0
- 47.0
- 47.0
- 47.0
- 47.0
- 47.0
- 47.0
- 47.0
- 47.0
- 47.0
- 47.0
- 47.0
- 47.0
- 0.0
- 47.0
- 47.0
- 47.0
- 47.0
- 47.0
- 47.0
- 47.0
- '...'
---
header:
  stamp:
    sec: 1765665466
    nanosec: 742638658
  frame_id: laser
angle_min: -3.1415927410125732
angle_max: 3.1415927410125732
angle_increment: 0.005823156330734491
time_increment: 0.00013464859512168914
scan_time: 0.14528582990169525
range_min: 0.05000000074505806
range_max: 12.0
ranges:
- 1.4459999799728394
- 1.4479999542236328
- 1.4479999542236328
- 1.4479999542236328
- 1.4479999542236328
- 1.4500000476837158
- 1.4479999542236328
- 1.4459999799728394
- 1.4479999542236328
- 1.4500000476837158
- 1.4500000476837158
- 1.4500000476837158
- 1.4539999961853027
- 1.4479999542236328
- 1.4539999961853027
- 1.4539999961853027
- 1.4500000476837158
- 1.4520000219345093
- 1.4539999961853027
- 1.4520000219345093
- 1.4520000219345093
- 1.4579999446868896
- 1.4600000381469727
- 1.0859999656677246
- 1.0859999656677246
- 1.0859999656677246
- 1.0859999656677246
- 1.0880000591278076
- 1.0880000591278076
- 1.0920000076293945
- 1.0920000076293945
- 1.0920000076293945
- 1.0920000076293945
- 1.093999981880188
- 1.0959999561309814
- 1.0959999561309814
- 1.0980000495910645
- 1.0980000495910645
- 1.100000023841858
- 1.100000023841858
- 1.1019999980926514
- 1.1039999723434448
- 1.1039999723434448
- 1.1039999723434448
- 1.1059999465942383
- 1.1080000400543213
- 1.1100000143051147
- 1.1100000143051147
- 1.1139999628067017
- 1.1160000562667847
- 1.1160000562667847
- 1.1200000047683716
- 1.121999979019165
- 1.121999979019165
- 1.1239999532699585
- 1.1260000467300415
- 1.128000020980835
- 1.128000020980835
- 1.1299999952316284
- 1.1339999437332153
- 1.1339999437332153
- 1.1360000371932983
- 1.1399999856948853
- 1.1399999856948853
- 1.1419999599456787
- 1.1440000534057617
- 1.1460000276565552
- 1.1480000019073486
- 1.1519999504089355
- 1.1519999504089355
- 1.1540000438690186
- 1.156000018119812
- 1.1579999923706055
- 1.1619999408721924
- 1.1640000343322754
- 1.1679999828338623
- 0.9980000257492065
- 0.9980000257492065
- 0.9980000257492065
- 0.9940000176429749
- 0.9959999918937683
- 1.184000015258789
- 1.190000057220459
- 1.190000057220459
- 1.1920000314712524
- 1.1920000314712524
- 1.194000005722046
- 1.1979999542236328
- 1.2020000219345093
- 1.2059999704360962
- 1.2120000123977661
- 1.2120000123977661
- 1.215999960899353
- 1.2200000286102295
- 1.222000002861023
- 1.2239999771118164
- 1.2280000448226929
- 1.2319999933242798
- 1.2359999418258667
- 1.2419999837875366
- 1.24399995803833
- 1.2480000257492065
- 1.253999948501587
- 1.25600004196167
- 1.1859999895095825
- 1.1859999895095825
- 1.1820000410079956
- 1.284000039100647
- 1.284000039100647
- 1.2860000133514404
- 1.2899999618530273
- 0.8159999847412109
- 0.8159999847412109
- 0.8100000023841858
- 0.8100000023841858
- 0.8100000023841858
- 0.8080000281333923
- 0.8080000281333923
- .inf
- 1.350000023841858
- 1.350000023841858
- 1.350000023841858
- 1.3539999723434448
- .inf
- .inf
- .inf
- .inf
- 2.6480000019073486
- '...'
intensities:
- 47.0
- 47.0
- 47.0
- 47.0
- 47.0
- 47.0
- 47.0
- 47.0
- 47.0
- 47.0
- 47.0
- 47.0
- 47.0
- 47.0
- 47.0
- 47.0
- 47.0
- 47.0
- 47.0
- 47.0
- 47.0
- 47.0
- 47.0
- 47.0
- 47.0
- 47.0
- 47.0
- 47.0
- 47.0
- 47.0
- 47.0
- 47.0
- 47.0
- 47.0
- 47.0
- 47.0
- 47.0
- 47.0
- 47.0
- 47.0
- 47.0
- 47.0
- 47.0
- 47.0
- 47.0
- 47.0
- 47.0
- 47.0
- 47.0
- 47.0
- 47.0
- 47.0
- 47.0
- 47.0
- 47.0
- 47.0
- 47.0
- 47.0
- 47.0
- 47.0
- 47.0
- 47.0
- 47.0
- 47.0
- 47.0
- 47.0
- 47.0
- 47.0
- 47.0
- 47.0
- 47.0
- 47.0
- 47.0
- 47.0
- 47.0
- 47.0
- 47.0
- 47.0
- 47.0
- 47.0
- 47.0
- 47.0
- 47.0
- 47.0
- 47.0
- 47.0
- 47.0
- 47.0
- 47.0
- 47.0
- 47.0
- 47.0
- 47.0
- 47.0
- 47.0
- 47.0
- 47.0
- 47.0
- 47.0
- 47.0
- 47.0
- 47.0
- 47.0
- 47.0
- 47.0
- 47.0
- 47.0
- 47.0
- 47.0
- 47.0
- 47.0
- 47.0
- 47.0
- 47.0
- 47.0
- 47.0
- 47.0
- 47.0
- 0.0
- 47.0
- 47.0
- 47.0
- 47.0
- 0.0
- 0.0
- 0.0
- 0.0
- 47.0
- '...'
---
header:
  stamp:
    sec: 1765665466
    nanosec: 890460717
  frame_id: laser
angle_min: -3.1415927410125732
angle_max: 3.1415927410125732
angle_increment: 0.005823156330734491
time_increment: 0.00014510523760691285
scan_time: 0.15656855702400208
range_min: 0.05000000074505806
range_max: 12.0
ranges:
- 1.0800000429153442
- 1.0820000171661377
- 1.0839999914169312
- 1.0800000429153442
- 1.0800000429153442
- 1.0800000429153442
- 1.0800000429153442
- 1.0800000429153442
- 1.0800000429153442
- 1.0800000429153442
- 1.0800000429153442
- 1.0820000171661377
- 1.0820000171661377
- 1.0820000171661377
- 1.0820000171661377
- 1.0839999914169312
- 1.0820000171661377
- 1.0820000171661377
- 1.0839999914169312
- 1.0820000171661377
- 1.0839999914169312
- 1.4700000286102295
- 1.4700000286102295
- 1.468000054359436
- 1.4700000286102295
- 1.472000002861023
- 1.472000002861023
- 1.4739999771118164
- 1.472000002861023
- 1.4759999513626099
- 1.4780000448226929
- 1.4759999513626099
- 1.4739999771118164
- 1.4739999771118164
- 1.4739999771118164
- 1.468000054359436
- 1.4620000123977661
- 1.434000015258789
- 1.4320000410079956
- 1.4259999990463257
- 1.4259999990463257
- 1.434000015258789
- 1.440000057220459
- 1.440000057220459
- 1.4559999704360962
- 1.4839999675750732
- 1.49399995803833
- 1.496000051498413
- 1.4980000257492065
- 1.50600004196167
- 1.50600004196167
- 1.5080000162124634
- 1.5080000162124634
- 1.5080000162124634
- 1.5099999904632568
- 1.5119999647140503
- 1.5140000581741333
- 1.5160000324249268
- 1.5180000066757202
- 1.5199999809265137
- 1.5240000486373901
- 1.527999997138977
- 1.5140000581741333
- 1.1859999895095825
- 1.1859999895095825
- 1.1859999895095825
- 1.1859999895095825
- 1.187999963760376
- 1.187999963760376
- 1.1859999895095825
- 1.184000015258789
- 0.972000002861023
- 0.972000002861023
- 0.9679999947547913
- 0.9679999947547913
- 0.9679999947547913
- 1.3639999628067017
- 1.3639999628067017
- 1.3639999628067017
- 1.378000020980835
- 1.5839999914169312
- 1.5839999914169312
- 1.6059999465942383
- .inf
- .inf
- 1.628000020980835
- 1.628000020980835
- 1.628000020980835
- 1.6440000534057617
- 1.6440000534057617
- 1.6440000534057617
- 1.6360000371932983
- 1.6160000562667847
- 1.600000023841858
- 1.5880000591278076
- 1.7039999961853027
- 1.7039999961853027
- 1.6720000505447388
- 2.1760001182556152
- 2.1760001182556152
- 2.180000066757202
- 2.180000066757202
- 1.1859999895095825
- 1.1859999895095825
- 1.1799999475479126
- 1.1799999475479126
- 1.1779999732971191
- .inf
- .inf
- 1.3320000171661377
- 1.3320000171661377
- 1.3320000171661377
- 0.7699999809265137
- 0.7699999809265137
- 0.7699999809265137
- 0.7639999985694885
- 0.7639999985694885
- 0.7620000243186951
- 0.7599999904632568
- 0.7599999904632568
- .inf
- 2.563999891281128
- 2.563999891281128
- 2.563999891281128
- .inf
- .inf
- .inf
- 2.5999999046325684
- '...'
intensities:
- 47.0
- 47.0
- 47.0
- 47.0
- 47.0
- 47.0
- 47.0
- 47.0
- 47.0
- 47.0
- 47.0
- 47.0
- 47.0
- 47.0
- 47.0
- 47.0
- 47.0
- 47.0
- 47.0
- 47.0
- 47.0
- 47.0
- 47.0
- 47.0
- 47.0
- 47.0
- 47.0
- 47.0
- 47.0
- 47.0
- 47.0
- 47.0
- 47.0
- 47.0
- 47.0
- 47.0
- 47.0
- 47.0
- 47.0
- 47.0
- 47.0
- 47.0
- 47.0
- 47.0
- 47.0
- 47.0
- 47.0
- 47.0
- 47.0
- 47.0
- 47.0
- 47.0
- 47.0
- 47.0
- 47.0
- 47.0
- 47.0
- 47.0
- 47.0
- 47.0
- 47.0
- 47.0
- 47.0
- 47.0
- 47.0
- 47.0
- 47.0
- 47.0
- 47.0
- 47.0
- 47.0
- 47.0
- 47.0
- 47.0
- 47.0
- 47.0
- 47.0
- 47.0
- 47.0
- 47.0
- 47.0
- 47.0
- 47.0
- 0.0
- 0.0
- 47.0
- 47.0
- 47.0
- 47.0
- 47.0
- 47.0
- 47.0
- 47.0
- 47.0
- 47.0
- 47.0
- 47.0
- 47.0
- 47.0
- 47.0
- 47.0
- 47.0
- 47.0
- 47.0
- 47.0
- 47.0
- 47.0
- 0.0
- 0.0
- 47.0
- 47.0
- 47.0
- 47.0
- 47.0
- 47.0
- 47.0
- 47.0
- 47.0
- 47.0
- 47.0
- 0.0
- 47.0
- 47.0
- 47.0
- 0.0
- 0.0
- 0.0
- 47.0
- '...'
---
header:
  stamp:
    sec: 1765665467
    nanosec: 49656282
  frame_id: laser
angle_min: -3.1415927410125732
angle_max: 3.1415927410125732
angle_increment: 0.005823156330734491
time_increment: 0.00013416890578810126
scan_time: 0.14476825296878815
range_min: 0.05000000074505806
range_max: 12.0
ranges:
- 1.1619999408721924
- 1.1640000343322754
- 1.1640000343322754
- 1.1679999828338623
- 1.1699999570846558
- 1.1759999990463257
- 1.1820000410079956
- 1.184000015258789
- 1.187999963760376
- 1.4579999446868896
- 1.4579999446868896
- 1.4579999446868896
- 1.4639999866485596
- 1.4639999866485596
- 1.465999960899353
- 1.468000054359436
- 1.465999960899353
- 1.4639999866485596
- 1.465999960899353
- 1.465999960899353
- 1.468000054359436
- 1.4700000286102295
- 1.1579999923706055
- 1.1579999923706055
- 1.1239999532699585
- 1.1239999532699585
- 1.1239999532699585
- 1.0859999656677246
- 1.0800000429153442
- 1.0740000009536743
- 1.0740000009536743
- 1.0740000009536743
- 1.0720000267028809
- 1.0720000267028809
- 1.0740000009536743
- 1.0740000009536743
- 1.0759999752044678
- 1.0759999752044678
- 1.0759999752044678
- 1.0759999752044678
- 1.0779999494552612
- 1.0779999494552612
- 1.0779999494552612
- 1.0800000429153442
- 1.0800000429153442
- 1.0800000429153442
- 1.0839999914169312
- 1.0859999656677246
- 1.0859999656677246
- 1.0880000591278076
- 1.0880000591278076
- 1.0880000591278076
- 1.090000033378601
- 1.0920000076293945
- 1.093999981880188
- 1.0959999561309814
- 1.0980000495910645
- 1.100000023841858
- 1.1019999980926514
- 1.1019999980926514
- 1.1019999980926514
- 1.1039999723434448
- 1.1059999465942383
- 1.1080000400543213
- 1.1080000400543213
- 0.9620000123977661
- 0.9620000123977661
- 0.9599999785423279
- 0.9599999785423279
- 0.9580000042915344
- 0.9639999866485596
- 1.128000020980835
- 1.128000020980835
- 1.1319999694824219
- 1.1339999437332153
- 1.1360000371932983
- 1.1380000114440918
- 1.1399999856948853
- 1.1440000534057617
- 1.1440000534057617
- 1.1460000276565552
- 0.8360000252723694
- 0.828000009059906
- 0.8199999928474426
- 0.8119999766349792
- 0.8080000281333923
- 0.8040000200271606
- 0.800000011920929
- 0.7960000038146973
- 0.7940000295639038
- 0.7919999957084656
- 0.7860000133514404
- 0.7839999794960022
- 0.7820000052452087
- 0.7799999713897705
- 0.7799999713897705
- 0.777999997138977
- 0.7760000228881836
- 0.7739999890327454
- 0.7739999890327454
- 0.7720000147819519
- 0.7720000147819519
- 0.7699999809265137
- 0.7680000066757202
- 0.7680000066757202
- 0.7680000066757202
- 0.765999972820282
- 0.765999972820282
- 0.765999972820282
- 0.765999972820282
- 0.7680000066757202
- 0.7680000066757202
- 0.7720000147819519
- 0.7519999742507935
- 0.7519999742507935
- 0.7519999742507935
- 0.75
- 0.75
- 0.7519999742507935
- 0.7639999985694885
- 0.777999997138977
- 0.7799999713897705
- 0.7799999713897705
- 0.7820000052452087
- 0.7860000133514404
- 0.7879999876022339
- 0.7919999957084656
- 0.7960000038146973
- '...'
intensities:
- 47.0
- 47.0
- 47.0
- 47.0
- 47.0
- 47.0
- 47.0
- 47.0
- 47.0
- 47.0
- 47.0
- 47.0
- 47.0
- 47.0
- 47.0
- 47.0
- 47.0
- 47.0
- 47.0
- 47.0
- 47.0
- 47.0
- 47.0
- 47.0
- 47.0
- 47.0
- 47.0
- 47.0
- 47.0
- 47.0
- 47.0
- 47.0
- 47.0
- 47.0
- 47.0
- 47.0
- 47.0
- 47.0
- 47.0
- 47.0
- 47.0
- 47.0
- 47.0
- 47.0
- 47.0
- 47.0
- 47.0
- 47.0
- 47.0
- 47.0
- 47.0
- 47.0
- 47.0
- 47.0
- 47.0
- 47.0
- 47.0
- 47.0
- 47.0
- 47.0
- 47.0
- 47.0
- 47.0
- 47.0
- 47.0
- 47.0
- 47.0
- 47.0
- 47.0
- 47.0
- 47.0
- 47.0
- 47.0
- 47.0
- 47.0
- 47.0
- 47.0
- 47.0
- 47.0
- 47.0
- 47.0
- 47.0
- 47.0
- 47.0
- 47.0
- 47.0
- 47.0
- 47.0
- 47.0
- 47.0
- 47.0
- 47.0
- 47.0
- 47.0
- 47.0
- 47.0
- 47.0
- 47.0
- 47.0
- 47.0
- 47.0
- 47.0
- 47.0
- 47.0
- 47.0
- 47.0
- 47.0
- 47.0
- 47.0
- 47.0
- 47.0
- 47.0
- 47.0
- 47.0
- 47.0
- 47.0
- 47.0
- 47.0
- 47.0
- 47.0
- 47.0
- 47.0
- 47.0
- 47.0
- 47.0
- 47.0
- 47.0
- 47.0
- '...'
---
header:
  stamp:
    sec: 1765665467
    nanosec: 196769428
  frame_id: laser
angle_min: -3.1415927410125732
angle_max: 3.1415927410125732
angle_increment: 0.005823156330734491
time_increment: 0.00014586196630261838
scan_time: 0.15738505125045776
range_min: 0.05000000074505806
range_max: 12.0
ranges:
- 1.6440000534057617
- 1.6460000276565552
- 1.6460000276565552
- 1.6419999599456787
- 1.6419999599456787
- 1.6480000019073486
- .inf
- 3.4760000705718994
- 3.4760000705718994
- 3.4760000705718994
- 3.492000102996826
- 3.492000102996826
- 3.5
- 3.507999897003174
- 3.5160000324249268
- 3.552000045776367
- 3.5799999237060547
- 3.5799999237060547
- 3.5840001106262207
- 3.5959999561309814
- .inf
- .inf
- .inf
- .inf
- .inf
- .inf
- .inf
- 1.1979999542236328
- 1.1979999542236328
- 1.1979999542236328
- 1.2020000219345093
- 1.2020000219345093
- 1.2039999961853027
- 1.2039999961853027
- 1.2059999704360962
- 1.2100000381469727
- 1.2079999446868896
- 1.2100000381469727
- 1.2120000123977661
- 1.2100000381469727
- 1.2100000381469727
- 1.2120000123977661
- 1.2120000123977661
- 1.2120000123977661
- 1.2139999866485596
- 1.218000054359436
- 1.218000054359436
- 1.218000054359436
- .inf
- .inf
- .inf
- 4.343999862670898
- 4.343999862670898
- 4.343999862670898
- 4.3520002365112305
- 4.3520002365112305
- 1.496000051498413
- 1.496000051498413
- 1.5019999742507935
- 1.409999966621399
- 1.3980000019073486
- 1.187999963760376
- 1.1859999895095825
- 1.1859999895095825
- 1.1859999895095825
- 1.187999963760376
- 1.1859999895095825
- 1.1859999895095825
- 1.1859999895095825
- 1.187999963760376
- 1.187999963760376
- 0.9739999771118164
- 0.9739999771118164
- 0.9700000286102295
- 0.9679999947547913
- 0.9679999947547913
- .inf
- 1.590000033378601
- 1.590000033378601
- 1.590000033378601
- 1.5959999561309814
- 1.600000023841858
- 1.621999979019165
- .inf
- .inf
- .inf
- .inf
- .inf
- 1.6540000438690186
- 1.6540000438690186
- 1.6540000438690186
- 1.656000018119812
- 1.6160000562667847
- 1.600000023841858
- 1.5839999914169312
- 1.5700000524520874
- 1.5579999685287476
- 1.5440000295639038
- 1.5299999713897705
- 1.5160000324249268
- 1.4919999837875366
- 1.4780000448226929
- 1.465999960899353
- 1.1820000410079956
- 1.1820000410079956
- 1.1820000410079956
- 1.1779999732971191
- 1.1759999990463257
- 1.378000020980835
- 1.3639999628067017
- 1.3639999628067017
- 1.3519999980926514
- 1.343999981880188
- 0.777999997138977
- 0.777999997138977
- 0.7760000228881836
- 0.7760000228881836
- 0.7760000228881836
- 0.7739999890327454
- 0.7739999890327454
- .inf
- .inf
- .inf
- .inf
- 2.1600000858306885
- 2.1600000858306885
- 2.1600000858306885
- 2.1600000858306885
- '...'
intensities:
- 47.0
- 47.0
- 47.0
- 47.0
- 47.0
- 47.0
- 0.0
- 47.0
- 47.0
- 47.0
- 47.0
- 47.0
- 47.0
- 47.0
- 47.0
- 47.0
- 47.0
- 47.0
- 47.0
- 47.0
- 0.0
- 0.0
- 0.0
- 0.0
- 0.0
- 0.0
- 0.0
- 47.0
- 47.0
- 47.0
- 47.0
- 47.0
- 47.0
- 47.0
- 47.0
- 47.0
- 47.0
- 47.0
- 47.0
- 47.0
- 47.0
- 47.0
- 47.0
- 47.0
- 47.0
- 47.0
- 47.0
- 47.0
- 0.0
- 0.0
- 0.0
- 47.0
- 47.0
- 47.0
- 47.0
- 47.0
- 47.0
- 47.0
- 47.0
- 47.0
- 47.0
- 47.0
- 47.0
- 47.0
- 47.0
- 47.0
- 47.0
- 47.0
- 47.0
- 47.0
- 47.0
- 47.0
- 47.0
- 47.0
- 47.0
- 47.0
- 0.0
- 47.0
- 47.0
- 47.0
- 47.0
- 47.0
- 47.0
- 0.0
- 0.0
- 0.0
- 0.0
- 0.0
- 47.0
- 47.0
- 47.0
- 47.0
- 47.0
- 47.0
- 47.0
- 47.0
- 47.0
- 47.0
- 47.0
- 47.0
- 47.0
- 47.0
- 47.0
- 47.0
- 47.0
- 47.0
- 47.0
- 47.0
- 47.0
- 47.0
- 47.0
- 47.0
- 47.0
- 47.0
- 47.0
- 47.0
- 47.0
- 47.0
- 47.0
- 47.0
- 0.0
- 0.0
- 0.0
- 0.0
- 47.0
- 47.0
- 47.0
- 47.0
- '...'
---
header:
  stamp:
    sec: 1765665467
    nanosec: 356453806
  frame_id: laser
angle_min: -3.1415927410125732
angle_max: 3.1415927410125732
angle_increment: 0.005823156330734491
time_increment: 0.00013432740524876863
scan_time: 0.14493927359580994
range_min: 0.05000000074505806
range_max: 12.0
ranges:
- 1.6399999856948853
- 1.6360000371932983
- 1.6399999856948853
- 1.6360000371932983
- 1.6299999952316284
- 1.6299999952316284
- 1.6319999694824219
- 1.6319999694824219
- 1.6239999532699585
- 1.6299999952316284
- 1.6399999856948853
- .inf
- .inf
- 4.191999912261963
- 4.191999912261963
- 4.191999912261963
- .inf
- .inf
- .inf
- .inf
- 2.5360000133514404
- 2.5360000133514404
- 2.5360000133514404
- .inf
- .inf
- 9.399999618530273
- 9.399999618530273
- 9.399999618530273
- 1.090000033378601
- 1.090000033378601
- 9.472000122070312
- 9.479999542236328
- 1.090000033378601
- 1.090000033378601
- 1.090000033378601
- 1.0920000076293945
- 1.093999981880188
- 1.093999981880188
- 1.0980000495910645
- 1.0980000495910645
- 1.100000023841858
- 1.1019999980926514
- 1.1019999980926514
- 1.1039999723434448
- 1.1059999465942383
- 1.1059999465942383
- 1.1059999465942383
- 1.1080000400543213
- 1.1119999885559082
- 1.1119999885559082
- 1.1119999885559082
- 1.1139999628067017
- 1.1160000562667847
- 1.1200000047683716
- 1.1239999532699585
- 1.1239999532699585
- 1.1260000467300415
- 1.128000020980835
- 1.128000020980835
- 1.1299999952316284
- 1.1319999694824219
- 1.1360000371932983
- 1.1380000114440918
- 1.1399999856948853
- 1.1419999599456787
- 1.1419999599456787
- 1.1460000276565552
- 1.1519999504089355
- 1.1540000438690186
- 1.156000018119812
- 1.1579999923706055
- 1.1619999408721924
- 1.1640000343322754
- 1.1660000085830688
- 1.1660000085830688
- 1.1679999828338623
- 0.9959999918937683
- 0.9959999918937683
- 0.9959999918937683
- 0.9940000176429749
- 1.187999963760376
- 1.187999963760376
- 1.190000057220459
- 1.190000057220459
- 1.1920000314712524
- 1.1979999542236328
- 1.2039999961853027
- 1.2079999446868896
- 1.2100000381469727
- 1.2120000123977661
- 1.2139999866485596
- 1.218000054359436
- 1.2200000286102295
- 1.2239999771118164
- 1.2280000448226929
- 1.2319999933242798
- 1.2339999675750732
- 1.2380000352859497
- 1.2419999837875366
- 1.246000051498413
- 1.25
- 1.2519999742507935
- 1.25600004196167
- 1.2580000162124634
- 1.1859999895095825
- 1.1859999895095825
- 1.1779999732971191
- 1.2860000133514404
- 1.2860000133514404
- 1.2879999876022339
- 1.2899999618530273
- 0.8159999847412109
- 0.8159999847412109
- 0.8100000023841858
- 0.8100000023841858
- 0.8100000023841858
- 0.8080000281333923
- 0.8080000281333923
- .inf
- 1.350000023841858
- 1.350000023841858
- 1.350000023841858
- 1.3539999723434448
- 1.3600000143051147
- .inf
- .inf
- .inf
- 2.6600000858306885
- '...'
intensities:
- 47.0
- 47.0
- 47.0
- 47.0
- 47.0
- 47.0
- 47.0
- 47.0
- 47.0
- 47.0
- 47.0
- 0.0
- 0.0
- 47.0
- 47.0
- 47.0
- 0.0
- 0.0
- 0.0
- 0.0
- 47.0
- 47.0
- 47.0
- 0.0
- 0.0
- 47.0
- 47.0
- 47.0
- 47.0
- 47.0
- 47.0
- 47.0
- 47.0
- 47.0
- 47.0
- 47.0
- 47.0
- 47.0
- 47.0
- 47.0
- 47.0
- 47.0
- 47.0
- 47.0
- 47.0
- 47.0
- 47.0
- 47.0
- 47.0
- 47.0
- 47.0
- 47.0
- 47.0
- 47.0
- 47.0
- 47.0
- 47.0
- 47.0
- 47.0
- 47.0
- 47.0
- 47.0
- 47.0
- 47.0
- 47.0
- 47.0
- 47.0
- 47.0
- 47.0
- 47.0
- 47.0
- 47.0
- 47.0
- 47.0
- 47.0
- 47.0
- 47.0
- 47.0
- 47.0
- 47.0
- 47.0
- 47.0
- 47.0
- 47.0
- 47.0
- 47.0
- 47.0
- 47.0
- 47.0
- 47.0
- 47.0
- 47.0
- 47.0
- 47.0
- 47.0
- 47.0
- 47.0
- 47.0
- 47.0
- 47.0
- 47.0
- 47.0
- 47.0
- 47.0
- 47.0
- 47.0
- 47.0
- 47.0
- 47.0
- 47.0
- 47.0
- 47.0
- 47.0
- 47.0
- 47.0
- 47.0
- 47.0
- 47.0
- 0.0
- 47.0
- 47.0
- 47.0
- 47.0
- 47.0
- 0.0
- 0.0
- 0.0
- 47.0
- '...'
---
header:
  stamp:
    sec: 1765665467
    nanosec: 503151677
  frame_id: laser
angle_min: -3.1415927410125732
angle_max: 3.1415927410125732
angle_increment: 0.005823156330734491
time_increment: 0.00014687269867863506
scan_time: 0.15847563743591309
range_min: 0.05000000074505806
range_max: 12.0
ranges:
- 1.6820000410079956
- 1.684000015258789
- 1.6820000410079956
- 1.6820000410079956
- 1.684000015258789
- 1.6859999895095825
- 1.6859999895095825
- 1.687999963760376
- 1.690000057220459
- 1.690000057220459
- 1.687999963760376
- 1.687999963760376
- 1.6859999895095825
- .inf
- .inf
- 8.815999984741211
- 8.815999984741211
- 8.815999984741211
- 6.440000057220459
- 6.440000057220459
- 6.48799991607666
- 1.1160000562667847
- 1.1200000047683716
- 1.1200000047683716
- 1.1200000047683716
- 1.1180000305175781
- 1.1200000047683716
- 1.1200000047683716
- 1.121999979019165
- 1.1239999532699585
- 1.1239999532699585
- 1.1239999532699585
- 1.1239999532699585
- 1.1260000467300415
- 1.1260000467300415
- 1.128000020980835
- 1.128000020980835
- 1.128000020980835
- 1.128000020980835
- 1.1299999952316284
- 1.1299999952316284
- 1.1319999694824219
- 1.1319999694824219
- 1.1339999437332153
- 1.1360000371932983
- 1.1380000114440918
- 1.1380000114440918
- 1.1419999599456787
- 1.1440000534057617
- 1.1440000534057617
- 1.1460000276565552
- 1.1480000019073486
- 1.1480000019073486
- 1.149999976158142
- 1.149999976158142
- 1.1519999504089355
- 1.1519999504089355
- 1.159999966621399
- 1.1619999408721924
- 1.1640000343322754
- 1.1640000343322754
- 1.1660000085830688
- 1.1699999570846558
- 1.1699999570846558
- 1.1720000505447388
- 1.1720000505447388
- 1.1740000247955322
- 1.1779999732971191
- 1.1820000410079956
- 1.184000015258789
- 1.187999963760376
- 1.190000057220459
- 1.190000057220459
- 0.9779999852180481
- 0.9779999852180481
- 0.9779999852180481
- 0.9739999771118164
- 0.9739999771118164
- 0.9760000109672546
- 1.2139999866485596
- 1.2139999866485596
- 1.2139999866485596
- 1.2200000286102295
- 1.2239999771118164
- 1.2280000448226929
- 1.2280000448226929
- 1.2319999933242798
- 1.2380000352859497
- 1.2419999837875366
- 1.246000051498413
- 1.2519999742507935
- 1.2599999904632568
- 1.2680000066757202
- 1.277999997138977
- 1.284000039100647
- 1.2999999523162842
- 1.3140000104904175
- 1.3140000104904175
- 1.3220000267028809
- 1.343999981880188
- 1.343999981880188
- .inf
- .inf
- .inf
- 1.1799999475479126
- 1.1799999475479126
- 1.1799999475479126
- 1.1740000247955322
- 1.3739999532699585
- 1.3739999532699585
- 1.3660000562667847
- 1.3539999723434448
- 1.343999981880188
- 0.7839999794960022
- 0.7839999794960022
- 0.7839999794960022
- 0.7760000228881836
- 0.7739999890327454
- 0.7739999890327454
- 0.7720000147819519
- .inf
- 2.119999885559082
- 2.119999885559082
- 2.119999885559082
- 2.124000072479248
- 2.124000072479248
- 2.124000072479248
- 2.131999969482422
- '...'
intensities:
- 47.0
- 47.0
- 47.0
- 47.0
- 47.0
- 47.0
- 47.0
- 47.0
- 47.0
- 47.0
- 47.0
- 47.0
- 47.0
- 0.0
- 0.0
- 47.0
- 47.0
- 47.0
- 47.0
- 47.0
- 47.0
- 47.0
- 47.0
- 47.0
- 47.0
- 47.0
- 47.0
- 47.0
- 47.0
- 47.0
- 47.0
- 47.0
- 47.0
- 47.0
- 47.0
- 47.0
- 47.0
- 47.0
- 47.0
- 47.0
- 47.0
- 47.0
- 47.0
- 47.0
- 47.0
- 47.0
- 47.0
- 47.0
- 47.0
- 47.0
- 47.0
- 47.0
- 47.0
- 47.0
- 47.0
- 47.0
- 47.0
- 47.0
- 47.0
- 47.0
- 47.0
- 47.0
- 47.0
- 47.0
- 47.0
- 47.0
- 47.0
- 47.0
- 47.0
- 47.0
- 47.0
- 47.0
- 47.0
- 47.0
- 47.0
- 47.0
- 47.0
- 47.0
- 47.0
- 47.0
- 47.0
- 47.0
- 47.0
- 47.0
- 47.0
- 47.0
- 47.0
- 47.0
- 47.0
- 47.0
- 47.0
- 47.0
- 47.0
- 47.0
- 47.0
- 47.0
- 47.0
- 47.0
- 47.0
- 47.0
- 47.0
- 0.0
- 0.0
- 0.0
- 47.0
- 47.0
- 47.0
- 47.0
- 47.0
- 47.0
- 47.0
- 47.0
- 47.0
- 47.0
- 47.0
- 47.0
- 47.0
- 47.0
- 47.0
- 47.0
- 0.0
- 47.0
- 47.0
- 47.0
- 47.0
- 47.0
- 47.0
- 47.0
- '...'
---
header:
  stamp:
    sec: 1765665467
    nanosec: 664386686
  frame_id: laser
angle_min: -3.1415927410125732
angle_max: 3.1415927410125732
angle_increment: 0.005823156330734491
time_increment: 0.00013356392446439713
scan_time: 0.14411546289920807
range_min: 0.05000000074505806
range_max: 12.0
ranges:
- 1.1160000562667847
- 1.1160000562667847
- 1.1139999628067017
- 1.1139999628067017
- 1.1139999628067017
- 1.1139999628067017
- 1.1160000562667847
- 1.1139999628067017
- 1.1160000562667847
- 1.1160000562667847
- 1.1160000562667847
- 1.1139999628067017
- 1.1160000562667847
- 1.1160000562667847
- 1.1139999628067017
- 1.1139999628067017
- 1.1160000562667847
- 1.1180000305175781
- 1.1160000562667847
- 1.1160000562667847
- 1.1160000562667847
- 1.1480000019073486
- 1.1480000019073486
- 1.1480000019073486
- 1.1160000562667847
- 1.1160000562667847
- 1.0920000076293945
- 1.0859999656677246
- 1.0820000171661377
- 1.0759999752044678
- 1.0740000009536743
- 1.0740000009536743
- 1.0740000009536743
- 1.0740000009536743
- 1.0740000009536743
- 1.0740000009536743
- 1.0740000009536743
- 1.0759999752044678
- 1.0779999494552612
- 1.0779999494552612
- 1.0800000429153442
- 1.0779999494552612
- 1.0800000429153442
- 1.0800000429153442
- 1.0800000429153442
- 1.0820000171661377
- 1.0859999656677246
- 1.0859999656677246
- 1.0859999656677246
- 1.0880000591278076
- 1.090000033378601
- 1.090000033378601
- 1.0920000076293945
- 1.0920000076293945
- 1.093999981880188
- 1.0959999561309814
- 1.0980000495910645
- 1.1019999980926514
- 1.1019999980926514
- 1.1039999723434448
- 1.1039999723434448
- 1.1059999465942383
- 1.1080000400543213
- 1.1080000400543213
- 0.9639999866485596
- 0.9639999866485596
- 0.9639999866485596
- 0.9599999785423279
- 0.9599999785423279
- 1.128000020980835
- 1.1299999952316284
- 1.1299999952316284
- 1.1299999952316284
- 1.1319999694824219
- 1.1339999437332153
- 1.1399999856948853
- 1.1419999599456787
- 1.1419999599456787
- 1.1460000276565552
- 1.1460000276565552
- 1.149999976158142
- 1.1540000438690186
- 1.156000018119812
- 1.156000018119812
- 1.1579999923706055
- 1.1619999408721924
- 1.1660000085830688
- 1.1679999828338623
- 1.1699999570846558
- 1.1720000505447388
- 1.1759999990463257
- 1.1799999475479126
- 1.1859999895095825
- 1.190000057220459
- 1.1920000314712524
- 1.1959999799728394
- 1.2020000219345093
- 1.2059999704360962
- 1.2079999446868896
- 1.222000002861023
- 1.222000002861023
- 1.2079999446868896
- 1.1979999542236328
- 1.1920000314712524
- .inf
- 2.3959999084472656
- 2.3959999084472656
- 2.3959999084472656
- 2.4040000438690186
- .inf
- .inf
- .inf
- 0.7540000081062317
- 0.7540000081062317
- 0.7540000081062317
- 0.75
- 0.7480000257492065
- 0.7480000257492065
- 0.75
- 0.7799999713897705
- 0.7799999713897705
- 0.7799999713897705
- 0.7820000052452087
- 0.7839999794960022
- 0.7860000133514404
- 0.7879999876022339
- 0.7900000214576721
- 0.7900000214576721
- '...'
intensities:
- 47.0
- 47.0
- 47.0
- 47.0
- 47.0
- 47.0
- 47.0
- 47.0
- 47.0
- 47.0
- 47.0
- 47.0
- 47.0
- 47.0
- 47.0
- 47.0
- 47.0
- 47.0
- 47.0
- 47.0
- 47.0
- 47.0
- 47.0
- 47.0
- 47.0
- 47.0
- 47.0
- 47.0
- 47.0
- 47.0
- 47.0
- 47.0
- 47.0
- 47.0
- 47.0
- 47.0
- 47.0
- 47.0
- 47.0
- 47.0
- 47.0
- 47.0
- 47.0
- 47.0
- 47.0
- 47.0
- 47.0
- 47.0
- 47.0
- 47.0
- 47.0
- 47.0
- 47.0
- 47.0
- 47.0
- 47.0
- 47.0
- 47.0
- 47.0
- 47.0
- 47.0
- 47.0
- 47.0
- 47.0
- 47.0
- 47.0
- 47.0
- 47.0
- 47.0
- 47.0
- 47.0
- 47.0
- 47.0
- 47.0
- 47.0
- 47.0
- 47.0
- 47.0
- 47.0
- 47.0
- 47.0
- 47.0
- 47.0
- 47.0
- 47.0
- 47.0
- 47.0
- 47.0
- 47.0
- 47.0
- 47.0
- 47.0
- 47.0
- 47.0
- 47.0
- 47.0
- 47.0
- 47.0
- 47.0
- 47.0
- 47.0
- 47.0
- 47.0
- 47.0
- 0.0
- 47.0
- 47.0
- 47.0
- 47.0
- 0.0
- 0.0
- 0.0
- 47.0
- 47.0
- 47.0
- 47.0
- 47.0
- 47.0
- 47.0
- 47.0
- 47.0
- 47.0
- 47.0
- 47.0
- 47.0
- 47.0
- 47.0
- 47.0
- '...'
---
header:
  stamp:
    sec: 1765665467
    nanosec: 811034093
  frame_id: laser
angle_min: -3.1415927410125732
angle_max: 3.1415927410125732
angle_increment: 0.005823156330734491
time_increment: 0.00013413079432211816
scan_time: 0.14472712576389313
range_min: 0.05000000074505806
range_max: 12.0
ranges:
- 1.6480000019073486
- 1.6480000019073486
- 1.6480000019073486
- 1.6460000276565552
- 1.6399999856948853
- 1.6480000019073486
- 1.6720000505447388
- 3.380000114440918
- 3.380000114440918
- 3.380000114440918
- 3.371999979019165
- 3.371999979019165
- 3.371999979019165
- 3.368000030517578
- 3.368000030517578
- 3.388000011444092
- 3.368000030517578
- 3.3440001010894775
- 3.3399999141693115
- 3.328000068664551
- .inf
- .inf
- .inf
- .inf
- 1.1699999570846558
- 1.1699999570846558
- 1.1699999570846558
- 1.1380000114440918
- 1.1080000400543213
- 1.0839999914169312
- 1.0759999752044678
- 1.0759999752044678
- 1.0759999752044678
- 1.0740000009536743
- 1.0759999752044678
- 1.0759999752044678
- 1.0779999494552612
- 1.0779999494552612
- 1.0779999494552612
- 1.0779999494552612
- 1.0800000429153442
- 1.0800000429153442
- 1.0800000429153442
- 1.0800000429153442
- 1.0839999914169312
- 1.0839999914169312
- 1.0859999656677246
- 1.0859999656677246
- 1.0859999656677246
- 1.0880000591278076
- 1.090000033378601
- 1.0920000076293945
- 1.1039999723434448
- 1.1619999408721924
- 1.1619999408721924
- 1.159999966621399
- 1.1579999923706055
- 1.1679999828338623
- 1.1920000314712524
- 1.1920000314712524
- 1.187999963760376
- 1.187999963760376
- 1.187999963760376
- 1.190000057220459
- 1.190000057220459
- 1.187999963760376
- 1.190000057220459
- 1.190000057220459
- 1.187999963760376
- 0.9679999947547913
- 0.9639999866485596
- 0.9639999866485596
- 0.9639999866485596
- 0.9639999866485596
- 0.9679999947547913
- 1.1920000314712524
- 1.1920000314712524
- 1.1920000314712524
- 1.1920000314712524
- 1.190000057220459
- 1.187999963760376
- 1.2020000219345093
- 1.2239999771118164
- 1.24399995803833
- 1.2680000066757202
- 1.2940000295639038
- 1.3220000267028809
- 1.3459999561309814
- 1.371999979019165
- 1.3919999599456787
- 2.1080000400543213
- 2.1080000400543213
- 2.115999937057495
- 2.115999937057495
- 2.119999885559082
- 2.128000020980835
- 2.1480000019073486
- 2.1640000343322754
- 2.171999931335449
- 2.1760001182556152
- 2.184000015258789
- 2.184000015258789
- 1.1859999895095825
- 1.1859999895095825
- 1.1799999475479126
- 1.1799999475479126
- 1.1779999732971191
- .inf
- .inf
- .inf
- .inf
- .inf
- .inf
- 0.7699999809265137
- 0.7699999809265137
- 0.7699999809265137
- 0.765999972820282
- 0.765999972820282
- 0.7680000066757202
- .inf
- .inf
- .inf
- 2.140000104904175
- 2.140000104904175
- 2.140000104904175
- 2.131999969482422
- 2.119999885559082
- 2.1040000915527344
- '...'
intensities:
- 47.0
- 47.0
- 47.0
- 47.0
- 47.0
- 47.0
- 47.0
- 47.0
- 47.0
- 47.0
- 47.0
- 47.0
- 47.0
- 47.0
- 47.0
- 47.0
- 47.0
- 47.0
- 47.0
- 47.0
- 0.0
- 0.0
- 0.0
- 0.0
- 47.0
- 47.0
- 47.0
- 47.0
- 47.0
- 47.0
- 47.0
- 47.0
- 47.0
- 47.0
- 47.0
- 47.0
- 47.0
- 47.0
- 47.0
- 47.0
- 47.0
- 47.0
- 47.0
- 47.0
- 47.0
- 47.0
- 47.0
- 47.0
- 47.0
- 47.0
- 47.0
- 47.0
- 47.0
- 47.0
- 47.0
- 47.0
- 47.0
- 47.0
- 47.0
- 47.0
- 47.0
- 47.0
- 47.0
- 47.0
- 47.0
- 47.0
- 47.0
- 47.0
- 47.0
- 47.0
- 47.0
- 47.0
- 47.0
- 47.0
- 47.0
- 47.0
- 47.0
- 47.0
- 47.0
- 47.0
- 47.0
- 47.0
- 47.0
- 47.0
- 47.0
- 47.0
- 47.0
- 47.0
- 47.0
- 47.0
- 47.0
- 47.0
- 47.0
- 47.0
- 47.0
- 47.0
- 47.0
- 47.0
- 47.0
- 47.0
- 47.0
- 47.0
- 47.0
- 47.0
- 47.0
- 47.0
- 47.0
- 0.0
- 0.0
- 0.0
- 0.0
- 0.0
- 0.0
- 47.0
- 47.0
- 47.0
- 47.0
- 47.0
- 47.0
- 0.0
- 0.0
- 0.0
- 47.0
- 47.0
- 47.0
- 47.0
- 47.0
- 47.0
- '...'
---
header:
  stamp:
    sec: 1765665467
    nanosec: 958030212
  frame_id: laser
angle_min: -3.1415927410125732
angle_max: 3.1415927410125732
angle_increment: 0.005823156330734491
time_increment: 0.0001464232336729765
scan_time: 0.15799066424369812
range_min: 0.05000000074505806
range_max: 12.0
ranges:
- 1.6380000114440918
- 1.6380000114440918
- 1.6360000371932983
- 1.6380000114440918
- 1.6399999856948853
- 1.6360000371932983
- 1.6360000371932983
- .inf
- .inf
- .inf
- .inf
- 4.216000080108643
- 4.216000080108643
- 4.216000080108643
- 4.1519999504089355
- 4.1519999504089355
- .inf
- .inf
- .inf
- .inf
- .inf
- .inf
- .inf
- .inf
- .inf
- .inf
- .inf
- .inf
- .inf
- 4.935999870300293
- 4.935999870300293
- 4.935999870300293
- 4.952000141143799
- 4.952000141143799
- 4.952000141143799
- 4.4079999923706055
- 4.4079999923706055
- 4.335999965667725
- 4.335999965667725
- 4.25600004196167
- 4.74399995803833
- 4.74399995803833
- 4.74399995803833
- 4.760000228881836
- 4.776000022888184
- 4.776000022888184
- 4.760000228881836
- 4.76800012588501
- 1.4160000085830688
- 1.4160000085830688
- 1.4160000085830688
- 1.440000057220459
- 1.4479999542236328
- 1.4520000219345093
- 1.305999994277954
- 1.305999994277954
- 1.305999994277954
- 1.2960000038146973
- 1.2920000553131104
- 1.2879999876022339
- 1.2860000133514404
- 1.284000039100647
- 1.281999945640564
- 1.2799999713897705
- 1.2899999618530273
- .inf
- 2.5320000648498535
- 2.5320000648498535
- 2.5320000648498535
- 2.4159998893737793
- 2.4159998893737793
- 2.431999921798706
- 2.440000057220459
- .inf
- 0.9940000176429749
- 0.9940000176429749
- 0.9940000176429749
- 0.9900000095367432
- 0.9900000095367432
- 0.9900000095367432
- 1.1859999895095825
- 1.1859999895095825
- 1.1859999895095825
- 1.190000057220459
- 1.194000005722046
- 1.1959999799728394
- 1.2000000476837158
- 1.2020000219345093
- 1.2039999961853027
- 1.2100000381469727
- 1.215999960899353
- 1.218000054359436
- 1.2200000286102295
- 1.2259999513626099
- 1.2280000448226929
- 1.2319999933242798
- 1.2359999418258667
- 1.2400000095367432
- 1.2419999837875366
- 1.25
- 1.2519999742507935
- 1.25600004196167
- 1.2640000581741333
- 1.2680000066757202
- 1.184000015258789
- 1.1759999990463257
- 1.1740000247955322
- 1.2940000295639038
- 1.2940000295639038
- 1.2979999780654907
- 1.3020000457763672
- 0.8159999847412109
- 0.8159999847412109
- 0.8159999847412109
- 0.8059999942779541
- 0.8059999942779541
- 0.8040000200271606
- 0.8040000200271606
- 1.3639999628067017
- 1.3639999628067017
- 1.3639999628067017
- .inf
- .inf
- .inf
- .inf
- .inf
- .inf
- .inf
- '...'
intensities:
- 47.0
- 47.0
- 47.0
- 47.0
- 47.0
- 47.0
- 47.0
- 0.0
- 0.0
- 0.0
- 0.0
- 47.0
- 47.0
- 47.0
- 47.0
- 47.0
- 0.0
- 0.0
- 0.0
- 0.0
- 0.0
- 0.0
- 0.0
- 0.0
- 0.0
- 0.0
- 0.0
- 0.0
- 0.0
- 47.0
- 47.0
- 47.0
- 47.0
- 47.0
- 47.0
- 47.0
- 47.0
- 47.0
- 47.0
- 47.0
- 47.0
- 47.0
- 47.0
- 47.0
- 47.0
- 47.0
- 47.0
- 47.0
- 47.0
- 47.0
- 47.0
- 47.0
- 47.0
- 47.0
- 47.0
- 47.0
- 47.0
- 47.0
- 47.0
- 47.0
- 47.0
- 47.0
- 47.0
- 47.0
- 47.0
- 0.0
- 47.0
- 47.0
- 47.0
- 47.0
- 47.0
- 47.0
- 47.0
- 0.0
- 47.0
- 47.0
- 47.0
- 47.0
- 47.0
- 47.0
- 47.0
- 47.0
- 47.0
- 47.0
- 47.0
- 47.0
- 47.0
- 47.0
- 47.0
- 47.0
- 47.0
- 47.0
- 47.0
- 47.0
- 47.0
- 47.0
- 47.0
- 47.0
- 47.0
- 47.0
- 47.0
- 47.0
- 47.0
- 47.0
- 47.0
- 47.0
- 47.0
- 47.0
- 47.0
- 47.0
- 47.0
- 47.0
- 47.0
- 47.0
- 47.0
- 47.0
- 47.0
- 47.0
- 47.0
- 47.0
- 47.0
- 0.0
- 0.0
- 0.0
- 0.0
- 0.0
- 0.0
- 0.0
- '...'
---
header:
  stamp:
    sec: 1765665468
    nanosec: 118578643
  frame_id: laser
angle_min: -3.1415927410125732
angle_max: 3.1415927410125732
angle_increment: 0.005823156330734491
time_increment: 0.00013362297613639385
scan_time: 0.14417918026447296
range_min: 0.05000000074505806
range_max: 12.0
ranges:
- 1.6779999732971191
- 1.2020000219345093
- 1.1979999542236328
- 1.1979999542236328
- 1.1979999542236328
- 1.1959999799728394
- 1.1979999542236328
- 1.1979999542236328
- 1.2000000476837158
- 1.690000057220459
- 1.690000057220459
- 1.684000015258789
- 1.684000015258789
- .inf
- .inf
- .inf
- 6.464000225067139
- 6.464000225067139
- 6.464000225067139
- 6.400000095367432
- .inf
- .inf
- .inf
- .inf
- .inf
- .inf
- .inf
- .inf
- .inf
- 4.984000205993652
- 4.984000205993652
- 4.984000205993652
- 5.007999897003174
- 5.007999897003174
- 4.303999900817871
- 4.303999900817871
- 4.303999900817871
- 4.28000020980835
- 4.28000020980835
- 4.248000144958496
- 4.248000144958496
- 4.728000164031982
- 4.728000164031982
- 4.74399995803833
- 4.74399995803833
- 4.71999979019165
- 4.74399995803833
- 4.751999855041504
- 4.711999893188477
- 1.3279999494552612
- 1.3279999494552612
- 1.3279999494552612
- 1.3179999589920044
- 1.3179999589920044
- 1.309999942779541
- 1.3040000200271606
- 1.2979999780654907
- 1.2960000038146973
- 1.2920000553131104
- 1.2879999876022339
- 1.284000039100647
- 1.277999997138977
- 1.2799999713897705
- 1.2799999713897705
- 1.2899999618530273
- 1.2999999523162842
- 1.2979999780654907
- 1.2960000038146973
- 1.2960000038146973
- 1.2960000038146973
- .inf
- .inf
- 0.984000027179718
- 0.984000027179718
- 0.984000027179718
- 0.9800000190734863
- 0.9800000190734863
- 0.9800000190734863
- 0.9800000190734863
- 1.3940000534057617
- 1.3940000534057617
- 1.3980000019073486
- 1.3980000019073486
- 1.3960000276565552
- 1.3980000019073486
- 1.406000018119812
- 1.4040000438690186
- 1.4079999923706055
- 1.4199999570846558
- 1.6080000400543213
- .inf
- .inf
- 1.2680000066757202
- 1.2680000066757202
- 1.2680000066757202
- 1.2719999551773071
- 1.2760000228881836
- 1.284000039100647
- 1.2879999876022339
- 1.2920000553131104
- 1.2960000038146973
- 1.2999999523162842
- 1.3040000200271606
- 1.3079999685287476
- 1.1740000247955322
- 1.1720000505447388
- 1.1720000505447388
- 1.1720000505447388
- 1.3380000591278076
- 1.3380000591278076
- 1.343999981880188
- 1.3519999980926514
- 1.3519999980926514
- 0.7900000214576721
- 0.7839999794960022
- 0.7839999794960022
- 0.7839999794960022
- 0.7820000052452087
- 0.7820000052452087
- 0.7839999794960022
- .inf
- 1.3519999980926514
- 1.3519999980926514
- 1.3519999980926514
- 2.615999937057495
- 2.615999937057495
- .inf
- .inf
- '...'
intensities:
- 47.0
- 47.0
- 47.0
- 47.0
- 47.0
- 47.0
- 47.0
- 47.0
- 47.0
- 47.0
- 47.0
- 47.0
- 47.0
- 0.0
- 0.0
- 0.0
- 47.0
- 47.0
- 47.0
- 47.0
- 0.0
- 0.0
- 0.0
- 0.0
- 0.0
- 0.0
- 0.0
- 0.0
- 0.0
- 47.0
- 47.0
- 47.0
- 47.0
- 47.0
- 47.0
- 47.0
- 47.0
- 47.0
- 47.0
- 47.0
- 47.0
- 47.0
- 47.0
- 47.0
- 47.0
- 47.0
- 47.0
- 47.0
- 47.0
- 47.0
- 47.0
- 47.0
- 47.0
- 47.0
- 47.0
- 47.0
- 47.0
- 47.0
- 47.0
- 47.0
- 47.0
- 47.0
- 47.0
- 47.0
- 47.0
- 47.0
- 47.0
- 47.0
- 47.0
- 47.0
- 0.0
- 0.0
- 47.0
- 47.0
- 47.0
- 47.0
- 47.0
- 47.0
- 47.0
- 47.0
- 47.0
- 47.0
- 47.0
- 47.0
- 47.0
- 47.0
- 47.0
- 47.0
- 47.0
- 47.0
- 0.0
- 0.0
- 47.0
- 47.0
- 47.0
- 47.0
- 47.0
- 47.0
- 47.0
- 47.0
- 47.0
- 47.0
- 47.0
- 47.0
- 47.0
- 47.0
- 47.0
- 47.0
- 47.0
- 47.0
- 47.0
- 47.0
- 47.0
- 47.0
- 47.0
- 47.0
- 47.0
- 47.0
- 47.0
- 47.0
- 0.0
- 47.0
- 47.0
- 47.0
- 47.0
- 47.0
- 0.0
- 0.0
- '...'
---
header:
  stamp:
    sec: 1765665468
    nanosec: 264953083
  frame_id: laser
angle_min: -3.1415927410125732
angle_max: 3.1415927410125732
angle_increment: 0.005823156330734491
time_increment: 0.00014612132508773357
scan_time: 0.15766489505767822
range_min: 0.05000000074505806
range_max: 12.0
ranges:
- 1.6799999475479126
- 1.6799999475479126
- 1.6820000410079956
- 1.684000015258789
- 1.684000015258789
- 1.6779999732971191
- 1.6799999475479126
- 1.684000015258789
- 1.6859999895095825
- 1.6820000410079956
- 1.6820000410079956
- 1.687999963760376
- .inf
- 8.815999984741211
- 8.815999984741211
- 8.815999984741211
- 6.4079999923706055
- 6.4079999923706055
- 6.4079999923706055
- 6.368000030517578
- 6.4079999923706055
- .inf
- 1.1339999437332153
- 1.1339999437332153
- 1.1339999437332153
- 1.1019999980926514
- 1.1019999980926514
- 1.1019999980926514
- 1.0859999656677246
- 1.0800000429153442
- 1.0759999752044678
- 1.0740000009536743
- 1.0740000009536743
- 1.0740000009536743
- 1.0740000009536743
- 1.0720000267028809
- 1.0759999752044678
- 1.0759999752044678
- 1.0779999494552612
- 1.0779999494552612
- 1.0779999494552612
- 1.0779999494552612
- 1.0800000429153442
- 1.0800000429153442
- 1.0800000429153442
- 1.0800000429153442
- 1.0820000171661377
- 1.0839999914169312
- 1.0859999656677246
- 1.0880000591278076
- 1.0880000591278076
- 1.0880000591278076
- 1.090000033378601
- 1.090000033378601
- 1.0920000076293945
- 1.093999981880188
- 1.0959999561309814
- 1.0980000495910645
- 1.1019999980926514
- 1.1019999980926514
- 1.1059999465942383
- 1.1059999465942383
- 1.1059999465942383
- 1.1100000143051147
- 1.1119999885559082
- 0.9620000123977661
- 0.9620000123977661
- 0.9620000123977661
- 0.9599999785423279
- 0.9599999785423279
- 1.128000020980835
- 1.1299999952316284
- 1.1299999952316284
- 1.1319999694824219
- 1.1339999437332153
- 1.1360000371932983
- 1.1419999599456787
- 1.1419999599456787
- 1.1440000534057617
- 1.1440000534057617
- 1.1480000019073486
- 1.1519999504089355
- 1.1540000438690186
- 1.1540000438690186
- 1.1579999923706055
- 1.1619999408721924
- 1.1640000343322754
- 1.1679999828338623
- 1.1699999570846558
- 1.1720000505447388
- 1.1759999990463257
- 1.1799999475479126
- 1.1859999895095825
- 1.190000057220459
- 1.1920000314712524
- 1.1959999799728394
- 1.1979999542236328
- 1.2039999961853027
- 1.2079999446868896
- 1.2139999866485596
- 1.215999960899353
- 1.2139999866485596
- 1.2039999961853027
- 1.1920000314712524
- 1.194000005722046
- .inf
- 2.4000000953674316
- 2.4000000953674316
- 2.4000000953674316
- .inf
- 0.7540000081062317
- 0.7540000081062317
- 0.7540000081062317
- 0.7480000257492065
- 0.7480000257492065
- 0.7480000257492065
- 0.7459999918937683
- 0.7459999918937683
- 0.7459999918937683
- .inf
- .inf
- .inf
- .inf
- .inf
- .inf
- .inf
- .inf
- .inf
- '...'
intensities:
- 47.0
- 47.0
- 47.0
- 47.0
- 47.0
- 47.0
- 47.0
- 47.0
- 47.0
- 47.0
- 47.0
- 47.0
- 0.0
- 47.0
- 47.0
- 47.0
- 47.0
- 47.0
- 47.0
- 47.0
- 47.0
- 0.0
- 47.0
- 47.0
- 47.0
- 47.0
- 47.0
- 47.0
- 47.0
- 47.0
- 47.0
- 47.0
- 47.0
- 47.0
- 47.0
- 47.0
- 47.0
- 47.0
- 47.0
- 47.0
- 47.0
- 47.0
- 47.0
- 47.0
- 47.0
- 47.0
- 47.0
- 47.0
- 47.0
- 47.0
- 47.0
- 47.0
- 47.0
- 47.0
- 47.0
- 47.0
- 47.0
- 47.0
- 47.0
- 47.0
- 47.0
- 47.0
- 47.0
- 47.0
- 47.0
- 47.0
- 47.0
- 47.0
- 47.0
- 47.0
- 47.0
- 47.0
- 47.0
- 47.0
- 47.0
- 47.0
- 47.0
- 47.0
- 47.0
- 47.0
- 47.0
- 47.0
- 47.0
- 47.0
- 47.0
- 47.0
- 47.0
- 47.0
- 47.0
- 47.0
- 47.0
- 47.0
- 47.0
- 47.0
- 47.0
- 47.0
- 47.0
- 47.0
- 47.0
- 47.0
- 47.0
- 47.0
- 47.0
- 47.0
- 47.0
- 0.0
- 47.0
- 47.0
- 47.0
- 0.0
- 47.0
- 47.0
- 47.0
- 47.0
- 47.0
- 47.0
- 47.0
- 47.0
- 47.0
- 0.0
- 0.0
- 0.0
- 0.0
- 0.0
- 0.0
- 0.0
- 0.0
- 0.0
- '...'
---
header:
  stamp:
    sec: 1765665468
    nanosec: 425409640
  frame_id: laser
angle_min: -3.1415927410125732
angle_max: 3.1415927410125732
angle_increment: 0.005823156330734491
time_increment: 0.00013388808292802423
scan_time: 0.14446523785591125
range_min: 0.05000000074505806
range_max: 12.0
ranges:
- 1.6380000114440918
- 1.6380000114440918
- 1.6360000371932983
- 1.6380000114440918
- 1.6360000371932983
- 1.6380000114440918
- 1.6339999437332153
- .inf
- .inf
- .inf
- .inf
- 4.208000183105469
- 4.208000183105469
- 4.208000183105469
- 6.415999889373779
- 6.415999889373779
- 6.415999889373779
- .inf
- .inf
- .inf
- .inf
- 1.3079999685287476
